[
{"carte":["Лонг берри айс ти"],"chief":"Роман Торощин","city":"Екатеринбург","contacts":{"address":"ул. Белинского, 35","entrance":null,"hours":"пн-чт, вс 11:00-2:00, пт-сб 11:00-4:00","site":null,"tel":"+7 (343) 266-89-30"},"country":"Россия","cuisine":["средиземноморская"],"feel":["друзей","деловых людей","моделей","золотой молодежи"],"format":["выпить по коктейльчику","расслабиться на диванчике","поговорить о делах","покурить кальян"],"name":"Берри бар","name_eng":"berry","openDate":"Thu, 28 Apr 2011 00:00:00 GMT","path":"berry","point":[56.833199,60.616177]},
{"carte":["Егерь с огурцом"],"chief":"Геннадий Кононов","city":"Екатеринбург","contacts":{"address":"ул. Максима Горького, 7а","entrance":null,"hours":"круглосуточно","site":"www.коктейль-бар.рф","tel":"+7 (343) 345-71-11"},"country":"Россия","cuisine":["американская","европейская","японская"],"feel":["друзей","менеджеров","моделей","студентов","деловых людей"],"format":["выпить по коктейльчику","расслабиться на диванчике","потанцевать","поговорить о делах","покурить кальян"],"name":"Брют бар","name_eng":"brut","openDate":"Wed, 08 Apr 2009 00:00:00 GMT","path":"brut","point":[56.840771,60.605694]},
{"carte":["Любимый"],"chief":"Влад Ляхов и Иван Владимиров","city":"Екатеринбург","contacts":{"address":"ул. 8 марта, 8 д","entrance":null,"hours":"пн-чт, вс 12:00-2:00, пт-сб 12:00-6:00","site":null,"tel":"+7 (953) 606-76-84"},"country":"Россия","cuisine":["сэндвичи"],"feel":["друзей","студентов","творческих людей"],"format":["выпить по коктейльчику","расслабиться на диванчике","потанцевать"],"name":"Нью бар","name_eng":"new","openDate":"Tue, 01 Dec 2009 00:00:00 GMT","path":"new","point":[56.835007,60.599586]},
{"carte":["Старомодный на цедре"],"chief":"Вячеслав Зацепилов","city":"Екатеринбург","contacts":{"address":"ул. Красноармейская, 32","entrance":null,"hours":"пн-чт, вс 10:00-2:00, пт-сб круглосуточно","site":null,"tel":"+7 (343) 201-34-91"},"country":"Россия","cuisine":["европейская"],"feel":["друзей","деловых людей","менеджеров","творческих людей"],"format":["выпить по коктейльчику","расслабиться на диванчике","поговорить о делах"],"name":"Олд Фэшнд бар","name_eng":"old fashioned","openDate":"Thu, 12 May 2011 00:00:00 GMT","path":"old_fashioned","point":[56.834648,60.616882]},
{"carte":["Тея"],"chief":"Артур Иванов","city":"Казань","contacts":{"address":"ул. Баумана, 58","entrance":null,"hours":"вс-чт 12:00-2:00, пт-сб 12:00-5:00","site":null,"tel":"+7 (843) 253-55-32"},"country":"Россия","cuisine":["кубинская","мексиканская"],"feel":["друзей","студентов","менеджеров","иностранцев","творческих людей"],"format":["выпить по коктейльчику","расслабиться на диванчике","потанцевать"],"name":"Куба Либре","name_eng":"cuba libre kazan","openDate":"Sun, 23 Nov 2008 00:00:00 GMT","path":"cuba_libre_kazan","point":[55.790333,49.115208]},
{"carte":["Потенциале спешл"],"chief":"Артур Галайчук","city":"Казань","contacts":{"address":"Чистопольская ул., 19А","entrance":null,"hours":"пн-вс 18:00-6:00","site":"www.relab.me","tel":"+7 (843) 253-59-40"},"country":"Россия","cuisine":["европейская"],"feel":["друзей","студентов","менеджеров"],"format":["выпить по коктейльчику","расслабиться на диванчике","поговорить о делах","покурить кальян"],"name":"РеЛаб бар","name_eng":"relab","openDate":"Wed, 20 Apr 2011 00:00:00 GMT","path":"relab","point":[55.819839,49.114746]},
{"carte":["Бразильский лимонад"],"chief":"Евгений Александров","city":"Москва","contacts":{"address":"Глубокий пер., 1/2","entrance":null,"hours":"пн-вс 11:00-23:00","site":"www.317.ru","tel":"+7 (495) 605-19-97"},"country":"Россия","cuisine":["европейская","русская"],"feel":["друзей","деловых людей","менеджеров"],"format":["выпить по коктейльчику"],"name":"317","name_eng":"317","openDate":"Thu, 13 Jul 2000 00:00:00 GMT","path":"317","point":[55.754879,37.569874]},
{"carte":["Самоан фог каттер 2"],"chief":"Дмитрий Соколов","city":"Москва","contacts":{"address":"Мясницкая ул., 38","entrance":null,"hours":"круглосуточно","site":"www.alohabar.ru","tel":"+7 (495) 741-22-03"},"country":"Россия","cuisine":["европейская","латиноамериканская","мексиканская","паназиатская","средиземноморская","тайская"],"feel":["друзей","менеджеров","студентов"],"format":["выпить по коктейльчику","расслабиться на диванчике","потанцевать","покурить кальян"],"name":"Алоха бар","name_eng":"aloha","openDate":"Fri, 08 Apr 2011 00:00:00 GMT","path":"aloha","point":[55.766212,37.640148]},
{"carte":["Счастливый билет"],"chief":"Виталий Бганцов","city":"Москва","contacts":{"address":"Болотная наб., 3, стр. 2","entrance":null,"hours":"пн-ср 16:00-00:00, чт 16:00-3:00, пт 16:00-6:00, сб 12:00-6:00, \u003Cnobr\u003Eвс 12:00-00:00\u003C/nobr\u003E","site":null,"tel":"+7 (495) 768-51-71"},"country":"Россия","cuisine":["европейская"],"feel":["друзей","деловых людей","золотой молодежи","моделей","звезд"],"format":["выпить по коктейльчику","расслабиться на диванчике","поговорить о делах","посидеть на свежем воздухе"],"name":"Белка бар","name_eng":"squirrel","openDate":"Fri, 12 Nov 2010 00:00:00 GMT","path":"squirrel","point":[55.739986,37.609097]},
{"carte":["Наоми"],"chief":"Александр Кан","city":"Москва","contacts":{"address":"ул. Александра Солженицина, 46","entrance":null,"hours":"пн-вс 10:00-6:00","site":"www.buffet-cafe.ru","tel":"+7 (495) 988-28-57"},"country":"Россия","cuisine":["европейская","русская","японская"],"feel":["друзей","деловых людей","золотой молодежи","моделей"],"format":["выпить по коктейльчику","покурить кальян","расслабиться на диванчике","спеть в караоке"],"name":"Буфет","name_eng":"Sideboard","openDate":"Tue, 05 Feb 2008 00:00:00 GMT","path":"sideboard","point":[55.745739,37.667786]},
{"carte":["Пина Колада в кокосе"],"chief":"Вячеслав Ланкин","city":"Москва","contacts":{"address":"Садовая-Каретная ул., 20, стр. 2","entrance":null,"hours":"вт-сб 12:00-0:00, вс-пн не работают","site":"www.newdeli.ru","tel":"+7 (495) 699-39-52"},"country":"Россия","cuisine":["европейская"],"feel":["друзей","менеджеров","творческих людей"],"format":["выпить по коктейльчику"],"name":"Деликатессен","name_eng":"Delicatessen","openDate":"Mon, 01 Mar 2010 00:00:00 GMT","path":"delicatessen","point":[55.772427,37.610886]},
{"carte":["Голубичный коллинз"],"chief":"Эдвин Бьяругаба","city":"Москва","contacts":{"address":"Cтолешников пер., 12, стр. 2","entrance":null,"hours":"круглосуточно","site":"www.denissimachev.blogspot.com","tel":"+ 7 (495) 629-80-85"},"country":"Россия","cuisine":["тайская","европейская"],"feel":["друзей","золотой молодежи","иностранцев","звезд","творческих людей","моделей"],"format":["выпить по коктейльчику","расслабиться на диванчике","потанцевать","покурить кальян","посидеть на свежем воздухе"],"name":"Денис Симачёв Бар и Бутик","name_eng":"Denis Simachev Shop and Bar","openDate":"Fri, 13 Apr 2007 00:00:00 GMT","path":"denis_simachev_shop_and_bar","point":[55.76273,37.614574]},
{"carte":["Бубен шотов"],"chief":"Константин Комаров","city":"Москва","contacts":{"address":"Болотная наб., 3/4 стр.2","entrance":null,"hours":"вс-ср 12:00-6:00 , чт-сб 12:00-8:00","site":null,"tel":"+7 (495) 669-86-93"},"country":"Россия","cuisine":["европейская","индийская","тайская"],"feel":["друзей","деловых людей","золотой молодежи","моделей","творческих людей","иностранцев"],"format":["выпить по коктейльчику","расслабиться на диванчике","поговорить о делах","посидеть на свежем воздухе","потанцевать","покурить кальян"],"name":"Джипси","name_eng":"gipsy","openDate":"Fri, 17 Jun 2011 00:00:00 GMT","path":"gipsy","point":[55.739792,37.609936]},
{"carte":["Дрим дайкири меренги"],"chief":"Дмитрий Соколов","city":"Москва","contacts":{"address":"Мясницкая ул., 17, стр. 1","entrance":null,"hours":"круглосуточно","site":"www.dreambar.ru","tel":"+7 (495) 621-77-68"},"country":"Россия","cuisine":["европейская"],"feel":["друзей","менеджеров","студентов"],"format":["выпить по коктейльчику","покурить кальян","расслабиться на диванчике"],"name":"Дрим бар","name_eng":"Dream bar","openDate":"Wed, 19 Aug 2009 00:00:00 GMT","path":"dream_bar","point":[55.7635,37.635426]},
{"carte":["Кумкват ти"],"chief":"Павел Кузовков","city":"Москва","contacts":{"address":"ул. Льва Толстого, 18Б","entrance":null,"hours":"пн-вс 12:00-6:00","site":"www.carabasbar.ru","tel":"+7 (495) 221-76-00"},"country":"Россия","cuisine":["европейская"],"feel":["друзей","иностранцев","деловых людей","моделей","политиков","звезд"],"format":["выпить по коктейльчику","расслабиться на диванчике","поговорить о делах","провести романтический вечер"],"name":"Карабас бар","name_eng":"carabas bar","openDate":"Fri, 16 Sep 2011 00:00:00 GMT","path":"carabas_bar","point":[55.735401,37.584927]},
{"carte":["Вечерний грог"],"chief":"Андрей Мокуров","city":"Москва","contacts":{"address":"ул. Большая Дмитровка, 5/6","entrance":null,"hours":"круглосуточно","site":"www.ketamaradio.ru","tel":"+7 (495) 692-92-68"},"country":"Россия","cuisine":["европейская","марокканская"],"feel":["друзей","менеджеров","иностранцев","творческих людей"],"format":["выпить по коктейльчику","потанцевать"],"name":"Кетама бар","name_eng":"Ketama","openDate":"Mon, 01 Feb 2010 00:00:00 GMT","path":"ketama","point":[55.760433,37.615208]},
{"carte":["Куба либре"],"chief":"Антон Покозий","city":"Москва","contacts":{"address":"ул. Покровка, 17, стр. 1","entrance":null,"hours":"круглосуточно","site":"www.barcubalibre.ru","tel":"+ 7 (495) 624-07-18"},"country":"Россия","cuisine":["итальянская","мексиканская","русская"],"feel":["друзей","менеджеров","студентов"],"format":["выпить по коктейльчику","потанцевать"],"name":"Куба либре","name_eng":"Cuba libre","openDate":"Mon, 01 Mar 2010 00:00:00 GMT","path":"cuba_libre","point":[55.759613,37.645329]},
{"carte":["Олдбой"],"chief":"Павел Кузовков","city":"Москва","contacts":{"address":"Большая Пироговская ул., 27/1","entrance":null,"hours":"пн-вс 12:00–6:00","site":"www.luchbar.ru","tel":"+7 (495) 287-00-22"},"country":"Россия","cuisine":["европейская"],"feel":["друзей","иностранцев","деловых людей","моделей"],"format":["выпить по коктейльчику","расслабиться на диванчике","покурить кальян","поговорить о делах"],"name":"Луч","name_eng":"ray","openDate":"Sun, 01 Jan 2006 00:00:00 GMT","path":"ray","point":[55.730167,37.567749]},
{"carte":["Асаи сауэр"],"chief":"Сейран Геворкян","city":"Москва","contacts":{"address":"ул. Сретенка, 1","entrance":null,"hours":"пн-чт, вс 12:00-00:00, пт 12:00-6:00, сб 16:00-6:00","site":"www.martinezbar.ru","tel":"+7 (495) 760-81-92"},"country":"Россия","cuisine":["европейская"],"feel":["друзей","деловых людей","менеджеров"],"format":["выпить по коктейльчику","расслабиться на диванчике","поговорить о делах"],"name":"Мартинез бар","name_eng":"martinez","openDate":"Sun, 10 Apr 2011 00:00:00 GMT","path":"martinez","point":[55.766647,37.630356]},
{"carte":["Цитрусовый бурбон"],"chief":"Алексей Перекатов","city":"Москва","contacts":{"address":"Большая Никитская ул., 19","entrance":null,"hours":"пн-вс 12:00-6:00","site":"www.clubmayak.ru","tel":"+7 (495) 691-74-49"},"country":"Россия","cuisine":["итальянская","французская"],"feel":["друзей","творческих людей","звезд","иностранцев"],"format":["выпить по коктейльчику"],"name":"Маяк","name_eng":"Mayak","openDate":"Tue, 01 Jan 1985 00:00:00 GMT","path":"mayak","point":[55.756947,37.600971]},
{"carte":["Белый бунгало"],"chief":"Александр Кан","city":"Москва","contacts":{"address":"Садовническая ул., 84, стр. 3/7","entrance":null,"hours":"круглосуточно","site":"www.mechta-cafe.ru","tel":"+7 (495) 633-21-11"},"country":"Россия","cuisine":["азиатская","европейская","русская"],"feel":["друзей","иностранцев","золотой молодежи","деловых людей","моделей","политиков"],"format":["выпить по коктейльчику","расслабиться на диванчике","покурить кальян","поговорить о делах","провести романтический вечер","спеть в караоке","посидеть на свежем воздухе"],"name":"Мечта","name_eng":"dream","openDate":"Tue, 01 Mar 2011 00:00:00 GMT","path":"dream","point":[55.734207,37.642212]},
{"carte":["Секретный пунш"],"chief":"Сейран Геворкян","city":"Москва","contacts":{"address":"Баррикадная ул., 2/1, стр. 18","entrance":null,"hours":"пн-вс круглосуточно","site":"www.mulata.ru","tel":"+7 (495) 226-09-80"},"country":"Россия","cuisine":["европейская"],"feel":["друзей","студентов","менеджеров"],"format":["выпить по коктейльчику","потанцевать"],"name":"Мулата бар","name_eng":"mulata","openDate":"Thu, 20 Oct 2011 00:00:00 GMT","path":"mulata","point":[55.759953,37.58305]},
{"carte":["Гранатовый тини"],"chief":"Марат Саддаров","city":"Москва","contacts":{"address":"ул. Тверская, 23","entrance":null,"hours":"пн-ср 15:00-3:00, чт-вс 12:00-6:00","site":"www.noorbar.com","tel":"+7 (903) 136-76-86"},"country":"Россия","cuisine":["европейская","итальянская"],"feel":["друзей","деловых людей","творческих людей","звезд"],"format":["выпить по коктейльчику","поговорить о делах","потанцевать"],"name":"Нур бар","name_eng":"Noor","openDate":"Fri, 18 Dec 2009 00:00:00 GMT","path":"noor","point":[55.766899,37.600765]},
{"carte":["Эволюшен"],"chief":"Дмитрий Соколов","city":"Москва","contacts":{"address":"ул. Большая Дмитровка, 7/5, стр. 2","entrance":null,"hours":"круглосуточно","site":"www.alltimebar.ru","tel":"+ 7 (495) 629-08-11"},"country":"Россия","cuisine":["европейская"],"feel":["друзей","менеджеров","студентов"],"format":["выпить по коктейльчику","расслабиться на диванчике","покурить кальян"],"name":"Олтайм бар","name_eng":"All time bar","openDate":"Wed, 18 Nov 2009 00:00:00 GMT","path":"all_time_bar","point":[55.760784,37.614784]},
{"carte":["Антонио"],"chief":"Антон Покозий","city":"Москва","contacts":{"address":"ул. Сретенка, 1","entrance":null,"hours":"круглосуточно","site":"www.rocknrollbar.ru","tel":"+7 (495) 233-76-97"},"country":"Россия","cuisine":["европейская","мексиканская"],"feel":["друзей","менеджеров","студентов"],"format":["выпить по коктейльчику","потанцевать"],"name":"Рок-н-ролл бар","name_eng":"rock-n-roll","openDate":"Mon, 20 Dec 2010 00:00:00 GMT","path":"rock-n-roll","point":[55.766518,37.630325]},
{"carte":["Фокси леди шутер"],"chief":"Артур Балаян","city":"Москва","contacts":{"address":"Болотная наб., 3, стр. 1","entrance":null,"hours":"пн-чт 12:00-00:00, пт-сб 12:00-6:00, вс 12:00-00:00","site":null,"tel":"+7 (495) 504 09 32"},"country":"Россия","cuisine":["европейская","американская"],"feel":["друзей","творческих людей","менеджеров","студентов","иностранцев"],"format":["выпить по коктейльчику","потанцевать","посидеть на свежем воздухе"],"name":"Роллинг Стоун бар","name_eng":"Rolling Stone","openDate":"Thu, 08 Oct 2009 00:00:00 GMT","path":"rolling_stone","point":[55.739784,37.610138]},
{"carte":["Ред дресс"],"chief":"Сейран Геворкян","city":"Москва","contacts":{"address":"Столешников пер., 6","entrance":null,"hours":"пн-вс с 18:00 до последнего гостя","site":"www.secretbar.ru","tel":"+7 (495) 921-07-50"},"country":"Россия","cuisine":["европейская"],"feel":["друзей","творческих людей","менеджеров"],"format":["выпить по коктейльчику","покурить кальян"],"name":"Секретный бар","name_eng":"Secret bar","openDate":"Thu, 02 Apr 2009 00:00:00 GMT","path":"secret_bar","point":[55.762527,37.613304]},
{"carte":["Мастер и Маргарита"],"chief":"Бек Нарзи","city":"Москва","contacts":{"address":"Космодамианская наб., 52/6","entrance":null,"hours":"пн-вс 17:00-3:00","site":"www.cityspacebar.com","tel":"+7 (495) 221-53-57"},"country":"Россия","cuisine":["европейская","японская"],"feel":["друзей","деловых людей","иностранцев","политиков","звезд","моделей"],"format":["выпить по коктейльчику","провести романтический вечер","посмотреть на город с неба","расслабиться на диванчике","покурить кальян"],"name":"Сити Спейс бар и лаунж","name_eng":"City Space","openDate":"Sat, 03 Sep 2005 00:00:00 GMT","path":"city_space","point":[55.733177,37.644287]},
{"carte":["Вишня и вишня"],"chief":"Сергей Чесноков","city":"Москва","contacts":{"address":"Берсеневская наб., 14, стр. 5","entrance":null,"hours":"пн-чт, 9:00-00:00, пт-сб 9:00-5:00, вс 12:00-00:00","site":"www.barstrelka.com","tel":"+7 (495) 771 74 16"},"country":"Россия","cuisine":["европейская"],"feel":["друзей","иностранцев","творческих людей","золотой молодежи"],"format":["выпить по коктейльчику","расслабиться на диванчике","посидеть на свежем воздухе","потанцевать"],"name":"Стрелка","name_eng":"Strelka","openDate":"Tue, 01 Jun 2010 00:00:00 GMT","path":"strelka","point":[55.742573,37.609253]},
{"carte":["Валенсианская вода в кувшине"],"chief":"Вячеслав Ланкин","city":"Москва","contacts":{"address":"Трубная ул., 20/2, стр. 3","entrance":null,"hours":"круглосуточно","site":"www.tapadecomida.ru","tel":"+7 (495) 608-20-07"},"country":"Россия","cuisine":["европейская","испанская"],"feel":["друзей","менеджеров","студентов"],"format":["выпить по коктейльчику","посидеть на свежем воздухе"],"name":"Тапа де Комида","name_eng":"Tapa de Comida","openDate":"Wed, 15 Feb 2006 00:00:00 GMT","path":"tapa_de_comida","point":[55.769569,37.625561]},
{"carte":["Пьяное золото"],"chief":"Дмитрий Соколов","city":"Москва","contacts":{"address":"Потаповский пер., 5","entrance":null,"hours":"круглосуточно","site":"www.temabar.ru","tel":"+7 (495) 979-21-22"},"country":"Россия","cuisine":["европейская"],"feel":["друзей","менеджеров","студентов"],"format":["выпить по коктейльчику","потанцевать","покурить кальян","расслабиться на диванчике"],"name":"Тема бар","name_eng":"Tema Bar","openDate":"Fri, 24 Sep 2004 00:00:00 GMT","path":"tema_bar","point":[55.761776,37.640285]},
{"carte":["Томми Ди сауэр"],"chief":"Андрей Ларин","city":"Москва","contacts":{"address":"Третьяковский пр., 1","entrance":null,"hours":"пн-ср, вс 12:00-0:00, чт-сб 12:00-6:00","site":"www.tommy-d.ru","tel":"+7 (495) 784-07-07"},"country":"Россия","cuisine":["фьюжн"],"feel":["друзей","деловых людей","золотой молодежи","политиков","иностранцев","моделей","звезд"],"format":["выпить по коктейльчику","покурить кальян","потанцевать","спеть в караоке"],"name":"Томми Ди бар и лаунж","name_eng":"Tommy D","openDate":"Thu, 18 Mar 2010 00:00:00 GMT","path":"tommy_d","point":[55.75843,37.62355]},
{"carte":["Южный морской бриз"],"chief":"Дмитрий Соколов","city":"Москва","contacts":{"address":"ул. Покровка, 21-23/25, стр. 1","entrance":null,"hours":"круглосуточно","site":"www.free-bar.ru","tel":"+ 7 (495) 623-33-64"},"country":"Россия","cuisine":["американская","мексиканская"],"feel":["друзей","менеджеров","студентов"],"format":["выпить по коктейльчику"],"name":"Фри бар","name_eng":"Free Bar","openDate":"Mon, 24 Nov 2008 00:00:00 GMT","path":"free_bar","point":[55.759758,37.647488]},
{"carte":["Гейша мартини"],"chief":"Дмитрий Соколов","city":"Москва","contacts":{"address":"1-ая Тверская-Ямская ул., 27, стр. 1","entrance":null,"hours":"круглосуточно","site":"www.helpbar.ru","tel":"+7 (495) 995-53-95"},"country":"Россия","cuisine":["европейская","русская"],"feel":["друзей","менеджеров","студентов"],"format":["выпить по коктейльчику"],"name":"Хелп бар","name_eng":"Help","openDate":"Thu, 14 Oct 2004 00:00:00 GMT","path":"help","point":[55.775768,37.585667]},
{"carte":["Чайна ред гимлет"],"chief":"Роман Милостивый","city":"Москва","contacts":{"address":"секретная информация","entrance":null,"hours":"вт-сб 18:00-6:00","site":null,"tel":"секретная информация"},"country":"Россия","cuisine":["китайская"],"feel":["друзей","деловых людей","иностранцев","творческих людей"],"format":["выпить по коктейльчику","расслабиться на диванчике","поговорить о делах","провести романтический вечер"],"name":"Чайная","name_eng":"chainaya","openDate":"Tue, 20 Sep 2011 00:00:00 GMT","path":"chainaya","point":[55.776913,37.584015]},
{"carte":["№1"],"chief":"Андрей Козлов","city":"Нижний Новгород","contacts":{"address":"ул. Большая Покровская, 51А","entrance":null,"hours":"круглосуточно","site":null,"tel":"+7 (831) 430-55-25"},"country":"Россия","cuisine":["русская","фьюжн","японская"],"feel":["друзей","деловых людей","золотой молодежи","менеджеров"],"format":["выпить по коктейльчику","расслабиться на диванчике","покурить кальян","потацевать","провести романтический вечер","поговорить о делах"],"name":"Березка бар","name_eng":"birch","openDate":"Fri, 15 Jul 2011 00:00:00 GMT","path":"birch","point":[56.317215,43.993916]},
{"carte":["Карма"],"chief":"Артур Арутюньян","city":"Ростов-на-Дону","contacts":{"address":"Кировский пр., 51","entrance":null,"hours":"пн-чт, вс 12:00-2:00, пт-сб 12:00-4:00","site":null,"tel":"+7 (863) 221-12-88"},"country":"Россия","cuisine":["европейская"],"feel":["друзей","творческих людей","менеджеров","деловых людей","моделей","иностранцев"],"format":["выпить по коктейльчику","расслабиться на диванчике","поговорить о делах","провести романтический вечер","потанцевать"],"name":"Джон До","name_eng":"john do","openDate":"Wed, 20 Apr 2011 00:00:00 GMT","path":"john_do","point":[47.225163,39.734459]},
{"carte":["Виски сауэр Моджо"],"chief":"Антон Бедняков и Вадим Селин","city":"Ростов-на-Дону","contacts":{"address":"ул. Суворова, 19","entrance":null,"hours":"пн-чт, вс 12:00-00:00, пт 12:00-2:00, сб 14:00-2:00","site":"www.mojobar.ru","tel":"+7 (863) 250-11-69"},"country":"Россия","cuisine":["европейская","японская"],"feel":["друзей","иностранцев","менеджеров","деловых людей","творческих людей"],"format":["выпить по коктейльчику","расслабиться на диванчике","поговорить о делах","потанцевать"],"name":"Моджо бар","name_eng":"mojo","openDate":"Mon, 20 Sep 2010 00:00:00 GMT","path":"mojo","point":[47.223705,39.73978]},
{"carte":["Диксиленд смэш"],"chief":"Андрей Голубев","city":"Санкт-Петербург","contacts":{"address":"ул. Рубинштейна, 5","entrance":null,"hours":"пн-вс 10:00–02:00","site":"www.48chairs.ru","tel":"+7 (812) 315-77-75"},"country":"Россия","cuisine":["европейская"],"feel":["друзей","золотой молодежи","менеджеров","иностранцев","деловых людей","моделей","политиков"],"format":["выпить по коктейльчику","потанцевать","расслабиться на диванчике","покурить кальян","поговорить о делах"],"name":"48 стульев","name_eng":"48 chairs","openDate":"Mon, 10 Oct 2011 00:00:00 GMT","path":"48_chairs","point":[59.931248,30.347393]},
{"carte":["Тыкван до"],"chief":"Илья Астафьев и Сэм Коняхин","city":"Санкт-Петербург","contacts":{"address":"ул. Жуковского, 11","entrance":null,"hours":"пн-чт, вс 18:00–01:00, пт-сб 18:00–04:00","site":"www.bar812.ru","tel":"+7 (812) 956-81-29"},"country":"Россия","cuisine":["нет"],"feel":["друзей","золотой молодежи","менеджеров","моделей"],"format":["выпить по коктейльчику","расслабиться на диванчике","потанцевать"],"name":"Бар 812","name_eng":"812","openDate":"Thu, 27 Nov 2008 00:00:00 GMT","path":"812","point":[59.935593,30.352102]},
{"carte":["Горько-сладкая симфония 2"],"chief":"Артем Шахметов","city":"Санкт-Петербург","contacts":{"address":"Казанская ул., 5","entrance":null,"hours":"пн-пт с 12:00 до последнего гостя, сб-вс с 14:00 до последнего гостя","site":"www.project-barrel.ru","tel":"+7 (812) 929-82-98"},"country":"Россия","cuisine":["европейская","средиземноморская","японская"],"feel":["друзей","золотой молодежи","менеджеров","иностранцев","деловых людей","моделей"],"format":["выпить по коктейльчику","потанцевать","расслабиться на диванчике","покурить кальян"],"name":"Баррель бар","name_eng":"Barrel","openDate":"Fri, 06 Nov 2009 00:00:00 GMT","path":"barrel","point":[59.933216,30.322159]},
{"carte":["Твою мать"],"chief":"Алексей Шапошников","city":"Санкт-Петербург","contacts":{"address":"Шведский пер., 2","entrance":null,"hours":"пн-вс 18:00-2:00","site":null,"tel":"+7 (812) 571-52-65"},"country":"Россия","cuisine":["европейская"],"feel":["друзей","менеджеров"],"format":["выпить по коктейльчику","потанцевать"],"name":"Биг Ливер Плейс","name_eng":"Big Liver Place","openDate":"Tue, 17 Nov 2009 00:00:00 GMT","path":"big_liver_place","point":[59.938999,30.325569]},
{"carte":["Джу джулеп"],"chief":"Дмитрий Суворов","city":"Санкт-Петербург","contacts":{"address":"Конногвардейский б-р, 4","entrance":null,"hours":"пн-чт 8:00-00:00, пт 8:00-6:00, сб 10:00-6:00, вс 10:00-00:00","site":"www.graf-in.com","tel":"+7 (812) 601-01-60"},"country":"Россия","cuisine":["европейская","паназиатская"],"feel":["друзей","деловых людей","золотой молодежи","моделей","творческих людей"],"format":["выпить по коктейльчику","расслабиться на диванчике","поговорить о делах","покурить кальян"],"name":"Графин","name_eng":"grafin","openDate":"Thu, 30 Jun 2011 00:00:00 GMT","path":"grafin","point":[59.932747,30.298103]},
{"carte":["Чувство"],"chief":"Александр Пугачев","city":"Санкт-Петербург","contacts":{"address":"Разъезжая ул., 12","entrance":null,"hours":"пн-чт, вс 12:00–6:00 пт-сб 12:00-7:00","site":null,"tel":"+7 (812) 975-55-99"},"country":"Россия","cuisine":["азиатская","европейская"],"feel":["друзей","деловых людей","творческих людей","иностранцев","моделей"],"format":["выпить по коктейльчику","расслабиться на диванчике","потанцевать"],"name":"Дом Быта","name_eng":"House of consumer services","openDate":"Sun, 31 Oct 2010 00:00:00 GMT","path":"house_of_consumer_services","point":[59.92485,30.34605]},
{"carte":["Штырлиц"],"chief":"Сергей Сысолятин","city":"Уфа","contacts":{"address":"ул. Чернышевского, 88","entrance":null,"hours":"вс-чт 12:00-4:00, пт-сб 12:00-10:00","site":"www.club-bar.ru","tel":"+7 (347) 246-17-46"},"country":"Россия","cuisine":["фьюжн"],"feel":["друзей","моделей","деловых людей","золотой молодежи","творческих людей"],"format":["выпить по коктейльчику","расслабиться на диванчике","потанцевать","покурить кальян"],"name":"Зэ Бар","name_eng":"thebar","openDate":"Mon, 20 Sep 2010 00:00:00 GMT","path":"thebar","point":[54.747215,55.953884]},
{"carte":["Дымный глинтвейн"],"chief":"Рустам Нигматзянов","city":"Уфа","contacts":{"address":"ул. Ленина, 100","entrance":null,"hours":"пн-чт, вс 18:00-6:00, пт-сб 18:00-8:00","site":null,"tel":"+7 (917) 400-84-00"},"country":"Россия","cuisine":["европейская"],"feel":["друзей","моделей","менеджеров","иностранцев","деловых людей"],"format":["выпить по коктейльчику","расслабиться на диванчике","поговорить о делах","потанцевать","покурить кальян"],"name":"Флай бар","name_eng":"flybar","openDate":"Wed, 23 Feb 2011 00:00:00 GMT","path":"flybar","point":[54.750584,55.965042]}
]